[{"id":0,"name":"12 Ridges Vineyard","website":"\/wineries\/12-ridges-vineyard","address":"24981 Blue Ridge Pkwy, Vesuvius , VA 24483","latitude":37.896189,"longitude":-79.121184},{"id":1,"name":"2 Witches Winery and Brewing Co","website":"\/wineries\/2-witches-winery-and-brewing-co","address":"209 Trade Street, Danville, Virginia 24541","latitude":36.585645,"longitude":-79.421034},{"id":2,"name":"50 West Vineyards","website":"\/wineries\/50-west-vineyards","address":"39060 John Mosby Highway, Middleburg, Virginia 20117","latitude":38.98121,"longitude":-77.658044},{"id":3,"name":"7 Lady Vineyards","website":"\/wineries\/7-lady-vineyards","address":"1500 Manakin Road, Manakin-Sabot, VA  23103, VA 23103","latitude":37.657959,"longitude":-77.721262},{"id":4,"name":"868 Estate Vineyards","website":"\/wineries\/868-estate-vineyards","address":"14001 Harpers Ferry Rd., Hillsboro, Virginia 20132","latitude":39.231256,"longitude":-77.739474},{"id":5,"name":"8 Chains North Winery","website":"\/wineries\/8-chains-north-winery","address":"38593 Daymont Lane, Waterford, Virginia 20197-1038","latitude":39.17808,"longitude":-77.66877},{"id":6,"name":"Abingdon Vineyards","website":"\/wineries\/abingdon-vineyards","address":"20530 Alvarado Rd, Abingdon, Virginia 24211","latitude":36.658206,"longitude":-81.888948},{"id":7,"name":"Above Ground Winery","website":"\/wineries\/above-ground-winery","address":"975 McKinley Road, Middlebrook, Virginia 24459","latitude":38.043424,"longitude":-79.298705},{"id":8,"name":"Afton Mountain Vineyards","website":"\/wineries\/afton-mountain-vineyards","address":"234 Vineyard Lane, Afton, Virginia 22920","latitude":38.00824,"longitude":-78.85166},{"id":9,"name":"Albemarle CiderWorks","website":"\/wineries\/albemarle-ciderworks","address":"2545 Rural Ridge Lane, North Garden, Virginia 22959","latitude":37.966563,"longitude":-78.649885},{"id":10,"name":"Altillo Vineyards","website":"\/wineries\/altillo-vineyards","address":"620 Level Run Rd., Hurt, VA 24536","latitude":37.064792,"longitude":-79.244161},{"id":11,"name":"American Way Country Wines","website":"\/wineries\/american-way-country-wines","address":"13750 VA-47, Chase City, VA 23924","latitude":36.794649,"longitude":-78.351886},{"id":12,"name":"Ankida Ridge Vineyards","website":"\/wineries\/ankida-ridge-vineyards","address":"1304 Franklin Creek Rd., Amherst, VA 24521","latitude":37.70885,"longitude":-79.171761},{"id":13,"name":"Arterra Wines","website":"\/wineries\/arterra-wines","address":"1808 Leeds Manor Road, Delaplane, VA 20144","latitude":38.968336,"longitude":-77.973375},{"id":14,"name":"Ashton Creek Vineyard","website":"\/wineries\/ashton-creek-vineyard","address":"14501 Jefferson Davis Hwy, Chester, VA 23831","latitude":37.326998,"longitude":-77.404983},{"id":15,"name":"Aspen Dale Winery at The Barn","website":"\/wineries\/aspen-dale-winery-at-the-barn","address":"3180 Aspen Dale Lane (GPS:  11083 John Marshall Hwy), Delaplane, Virginia 20144","latitude":38.914986,"longitude":-77.921982},{"id":16,"name":"Bacchus Winery","website":"\/wineries\/bacchus-winery","address":"6320 Five Mile Centre Park, FREDERICKSBURG, VA 22407","latitude":38.2883,"longitude":-77.554093},{"id":17,"name":"Backporch Vineyard","website":"\/wineries\/backporch-vineyard","address":"16595 Wilmont Rd, King George, VA 22485","latitude":38.18137,"longitude":-77.06172},{"id":18,"name":"Barboursville Vineyards","website":"\/wineries\/barboursville-vineyards","address":"17655 Winery Road, Barboursville, Virginia 22923","latitude":38.1599,"longitude":-78.277008},{"id":19,"name":"Barn at 678","website":"\/wineries\/barn-at-678","address":"6045 Governor Barbour St, Barboursville, VA 22923","latitude":38.166415,"longitude":-78.271991},{"id":20,"name":"Barrel Oak Winery","website":"\/wineries\/barrel-oak-winery","address":"3623 Grove Ln, Delaplane, VIRGINIA 20144","latitude":38.88534,"longitude":-77.89611},{"id":21,"name":"Barren Ridge Vineyards","website":"\/wineries\/barren-ridge-vineyards","address":"984 Barren Ridge Road, Fishersville, VA 22939","latitude":38.162678,"longitude":-78.95051},{"id":22,"name":"Beliveau Farm Winery","website":"\/wineries\/beliveau-farm-winery","address":"3899 Eakin Farm Rd, Blacksburg, VA 24060","latitude":37.312068,"longitude":-80.278978},{"id":23,"name":"Big Fish Cider Co.","website":"\/wineries\/big-fish-cider-co","address":"59 Spruce Street, Monterey, VA 24465","latitude":38.412296,"longitude":-79.582808},{"id":24,"name":"Black Heath Meadery","website":"\/wineries\/black-heath-meadery","address":"1313 Altamont Ave, Richmond, VA 23230","latitude":37.565338,"longitude":-77.471168},{"id":25,"name":"Blenheim Vineyards","website":"\/wineries\/blenheim-vineyards","address":"31 Blenheim Farm, Charlottesville, Virginia 22902","latitude":37.931655,"longitude":-78.498935},{"id":26,"name":"Blue Bee Cider","website":"\/wineries\/blue-bee-cider","address":"4811 Bethlehem Rd, STE A, Richmond, VA 23230","latitude":37.591668,"longitude":-77.488846},{"id":27,"name":"Bluemont Vineyard","website":"\/wineries\/bluemont-vineyard","address":"18755 Foggy Bottom Road, Bluemont, Virginia 20135","latitude":39.09737,"longitude":-77.83623},{"id":28,"name":"Blue Quartz Winery","website":"\/wineries\/blue-quartz-winery","address":"2585 S F T Valley Road, Etlan, VA 22719","latitude":38.493006,"longitude":-78.283051},{"id":29,"name":"Blue Ridge Vineyard","website":"\/wineries\/blue-ridge-vineyard","address":"1027 Shiloh Dr., Eagle Rock, VA 24085","latitude":37.62866,"longitude":-79.75007},{"id":30,"name":"Bluestone Vineyard","website":"\/wineries\/bluestone-vineyard","address":"4828 Spring Creek Road, Bridgewater, VA 22812","latitude":38.387519,"longitude":-79.009507},{"id":31,"name":"Blue Valley Vineyard and Winery","website":"\/wineries\/blue-valley-vineyard-and-winery","address":"5535 Blue Valley Way, Delaplane, VA 20144","latitude":38.892104,"longitude":-77.901457},{"id":32,"name":"Bogati Winery","website":"\/wineries\/bogati-winery","address":"35246 Harry Byrd Highway, Round Hill, VA 20142","latitude":39.132508,"longitude":-77.768861},{"id":33,"name":"Bold Rock Cider","website":"\/wineries\/bold-rock-cider","address":"1020 Rockfish Valley Hwy, Nellysford, Virginia 22958","latitude":37.88097,"longitude":-78.90565},{"id":34,"name":"Boxwood Estate Winery","website":"\/wineries\/boxwood-estate-winery","address":"2042 Burrland Rd, Middleburg, VA 20117","latitude":38.959726,"longitude":-77.746501},{"id":35,"name":"Bozzo Family Vineyards","website":"\/wineries\/bozzo-family-vineyards","address":"35226 Charles Town Pike, Purcellville, VA 20132","latitude":39.238478,"longitude":-77.754065},{"id":36,"name":"Breaux Vineyards","website":"\/wineries\/breaux-vineyards","address":"36888 Breaux Vineyards Lane, Purcellville, Virginia 20132","latitude":39.231784,"longitude":-77.726493},{"id":37,"name":"Breezy Hill Meadworks","website":"\/wineries\/breezy-hill-meadworks","address":"15981 Breezy Hill Lane, Smithfield, VA 23430","latitude":36.92921,"longitude":-76.6032},{"id":38,"name":"Brent Manor Vineyards","website":"\/wineries\/brent-manor-vineyards","address":"100 Brent Manor Lane, Faber, Virginia 22938","latitude":37.8544,"longitude":-78.74574},{"id":39,"name":"Bright Meadows Farm","website":"\/wineries\/bright-meadows-farm","address":"1181 Nathalie Road, Nathalie, VA 24577","latitude":36.932638,"longitude":-78.948811},{"id":40,"name":"Brix & Columns Vineyards","website":"\/wineries\/brix-columns-vineyards","address":"1501 Dave Berry Road, McGaheysville, VA 22840","latitude":38.369489,"longitude":-78.696816},{"id":41,"name":"Brooks Mill Winery","website":"\/wineries\/brooks-mill-winery","address":"6221 Brooks Mill Rd., Wirtz, VA 24184","latitude":37.065366,"longitude":-79.755071},{"id":42,"name":"Bryant's Cider","website":"\/wineries\/bryant-s-cider","address":"3224 E Branch Loop, Roseland, VA  22967","latitude":37.79535,"longitude":-78.94279},{"id":43,"name":"Bryant's Cider RVA","website":"\/wineries\/bryant-s-cider-rva","address":"2114 E. Main St., Richmond, VA 23223","latitude":37.531129,"longitude":-77.424264},{"id":44,"name":"Burnbrae Vineyards","website":"\/wineries\/burnbrae-vineyards","address":"3524 Cottontown Road, Forest, Virginia 24551","latitude":37.397111,"longitude":-79.274933},{"id":45,"name":"Burnley Vineyards","website":"\/wineries\/burnley-vineyards","address":"4500 Winery Lane, Barboursville, Virginia 22923","latitude":38.15847,"longitude":-78.31707},{"id":46,"name":"Buskey Cider","website":"\/wineries\/buskey-cider","address":"2910 W. Leigh Street, Richmond, VA 23230","latitude":37.566064,"longitude":-77.469179},{"id":47,"name":"Byrd Cellars","website":"\/wineries\/byrd-cellars","address":"2442 Davis Mill Road, Goochland, VA 23063","latitude":37.74132,"longitude":-78.067232},{"id":48,"name":"Caihailian Vineyard","website":"\/wineries\/caihailian-vineyard","address":"872 Beech Grove Road, Roseland, VA 22967","latitude":37.87432,"longitude":-78.92849},{"id":49,"name":"Cana Vineyards and Winery of Middleburg","website":"\/wineries\/cana-vineyards-and-winery-of-middleburg","address":"38600 John Mosby Highway, Middleburg, VA 20117","latitude":38.977467,"longitude":-77.669853},{"id":50,"name":"Capstone Vineyards","website":"\/wineries\/capstone-vineyards","address":"13400 Crimson Ln, Linden, VA 22642","latitude":38.91865,"longitude":-78.06914},{"id":51,"name":"Cardinal Point Vineyard & Winery","website":"\/wineries\/cardinal-point-vineyard-winery","address":"9423 Batesville Road, Afton, Virginia 22920","latitude":37.988529,"longitude":-78.813861},{"id":52,"name":"Caret Cellars","website":"\/wineries\/caret-cellars","address":"495 Meadow Landing Lane, Caret, VA 22436","latitude":37.973422,"longitude":-76.963823},{"id":53,"name":"Carriage House Wineworks","website":"\/wineries\/carriage-house-wineworks","address":"40817 Browns Ln., Waterford, VA 20197","latitude":39.188671,"longitude":-77.589325},{"id":54,"name":"Casanel Vineyards & Winery","website":"\/wineries\/casanel-vineyards-winery","address":"17952 Canby Road, 17952 Canby Road , Leesburg, Virginia 20175","latitude":39.118775,"longitude":-77.62845},{"id":55,"name":"Castle Glen Winery","website":"\/wineries\/castle-glen-winery","address":"18185 Narrow Path Trail, Doswell, VA 23047","latitude":37.905475,"longitude":-77.53357},{"id":56,"name":"Castle Gruen Vineyards and Winery","website":"\/wineries\/castle-gruen-vineyards-and-winery","address":"1272 Meander Run Road, Locust Dale, Virginia 22948","latitude":38.36652,"longitude":-78.12273},{"id":57,"name":"Castle Hill Cider","website":"\/wineries\/castle-hill-cider","address":"6065 Turkey Sag Rd, Keswick, VA 22947","latitude":38.088857,"longitude":-78.290919},{"id":58,"name":"Cave Ridge Vineyard","website":"\/wineries\/cave-ridge-vineyard","address":"1476 Conicville Rd, Mt. Jackson, VA 22842","latitude":38.814533,"longitude":-78.669097},{"id":59,"name":"Chapelle Charlemagne Vineyards","website":"\/wineries\/chapelle-charlemagne-vineyards","address":"13453 Crest Hill Rd, Flint Hill, VA 22627","latitude":38.76358,"longitude":-78.0609},{"id":60,"name":"Chateau MerrillAnne","website":"\/wineries\/chateau-merrillanne-0","address":"16234 Marquis Rd., Orange, Virginia 22960","latitude":38.185569,"longitude":-77.983243},{"id":61,"name":"Chateau Morrisette","website":"\/wineries\/chateau-morrisette","address":"291 Winery Road SW, (MP 171.5 Blue Ridge Pkwy), Floyd, VA 24091","latitude":36.911192,"longitude":-80.320216},{"id":62,"name":"Chateau OBrien at Northpoint","website":"\/wineries\/chateau-obrien-at-northpoint","address":"3238 Railstop Road, Markham, Virginia 22643","latitude":38.903583,"longitude":-77.996955},{"id":63,"name":"Chatham Vineyards on Church Creek","website":"\/wineries\/chatham-vineyards-on-church-creek","address":"9232 Chatham Road, Machipongo, VA 23405","latitude":37.45395,"longitude":-75.932063},{"id":64,"name":"Chester Gap Cellars","website":"\/wineries\/chester-gap-cellars","address":"4615 Remount Rd, Front Royal, Virginia 22630","latitude":38.86017,"longitude":-78.12697},{"id":65,"name":"Chestnut Oak Vineyard","website":"\/wineries\/chestnut-oak-vineyard","address":"5050 Stony Point Road, Barboursville , VA 22923","latitude":38.141711,"longitude":-78.328162},{"id":66,"name":"Chisholm Vineyards at Adventure Farm","website":"\/wineries\/chisholm-vineyards-at-adventure-farm","address":"1135 Clan Chisholm Lane, Earlysville, VA 22936","latitude":38.134903,"longitude":-78.460726},{"id":67,"name":"Chiswell Farm and Winery","website":"\/wineries\/chiswell-farm-and-winery","address":"7618 Pony Express Lane, Greenwood, VA 22943","latitude":38.04466,"longitude":-78.77267},{"id":68,"name":"Chrysalis Vineyards at The Ag District","website":"\/wineries\/chrysalis-vineyards-at-the-ag-district","address":"39025 Little River Tpke, Middleburg, Virginia 20117","latitude":38.971077,"longitude":-77.657284},{"id":69,"name":"Ciders from Mars, LLC","website":"\/wineries\/ciders-from-mars-llc","address":"121 South Lewis Street, Staunton, VA 24401","latitude":38.14745,"longitude":-79.074241},{"id":70,"name":"Cobbler Mountain Cellars","website":"\/wineries\/cobbler-mountain-cellars","address":"5909 Long Fall Lane (see notes) , via 10363 Moreland Road, Delaplane, VA 20144","latitude":38.8471,"longitude":-77.945564},{"id":71,"name":"Common Wealth Crush Co.","website":"\/wineries\/common-wealth-crush-co","address":"1010 E. Main St. Suite 110, Waynesboro, VA 22980","latitude":38.064164,"longitude":-78.874283},{"id":72,"name":"Corcoran Vineyards & Cider","website":"\/wineries\/corcoran-vineyards-cider","address":"14635 Corkys Farm Lane, Waterford, VA 20197","latitude":39.211223,"longitude":-77.653755},{"id":73,"name":"Courthouse Creek Cider","website":"\/wineries\/courthouse-creek-cider","address":"1581 Maidens Road, Maidens, VA 23102","latitude":37.672862,"longitude":-77.875779},{"id":74,"name":"Coyote Hole Ciderworks","website":"\/wineries\/coyote-hole-ciderworks","address":"225 Oak Grove Dr, Mineral, VA 23117","latitude":38.085619,"longitude":-77.854046},{"id":75,"name":"Creek's Edge Winery","website":"\/wineries\/creek-s-edge-winery","address":"41255 Annas Lane, (The Historic Village of Taylorstown), Lovettsville, VA 20180","latitude":39.255855,"longitude":-77.572572},{"id":76,"name":"CrossKeys Vineyards","website":"\/wineries\/crosskeys-vineyards","address":"6011 East Timber Ridge Road, Mt. Crawford, VA 22841","latitude":38.322798,"longitude":-78.850758},{"id":77,"name":"Crushed Cellars","website":"\/wineries\/crushed-cellars","address":"37938 Charles Town Pike, Purcellville, VA 20132","latitude":39.188365,"longitude":-77.690529},{"id":78,"name":"Cunningham Creek Winery","website":"\/wineries\/cunningham-creek-winery","address":"3304 Ruritan Lake Road, Palmyra, VA 22963","latitude":37.875084,"longitude":-78.35616},{"id":79,"name":"Daring Wine & Cider Company","website":"\/wineries\/daring-wine-cider-company","address":"621 Kelly Mill Rd, Stuart, VA 24171","latitude":36.5786,"longitude":-80.11983},{"id":80,"name":"Davis Valley Winery","website":"\/wineries\/davis-valley-winery","address":"1167 Davis Valley Road, Rural Retreat, VA 24368","latitude":36.90274,"longitude":-81.360322},{"id":81,"name":"Delaplane Cellars","website":"\/wineries\/delaplane-cellars","address":"2187 Winchester Road, Delaplane, Virginia 20144-1734","latitude":38.950137,"longitude":-77.935012},{"id":82,"name":"DeVault Family Vineyards","website":"\/wineries\/devault-family-vineyards","address":"247 Station Lane, Concord, VA  24538","latitude":37.346381,"longitude":-78.971505},{"id":83,"name":"Ditchley Ciderworks","website":"\/wineries\/ditchley-ciderworks","address":"1571 Ditchley Road, Ditchley Cider works, KILMARNOCK, VA 22482","latitude":37.734187,"longitude":-76.334615},{"id":84,"name":"Domaine Fortier Vineyards","website":"\/wineries\/domaine-fortier-vineyards","address":"13235 Milltown Road, Lovettsville, VA 20180","latitude":39.247995,"longitude":-77.62508},{"id":85,"name":"Douk\u00e9nie Winery","website":"\/wineries\/doukenie-winery","address":"14727 Mountain Road, Hillsboro, Virginia 20132","latitude":39.21148,"longitude":-77.70939},{"id":86,"name":"DuCard Vineyards","website":"\/wineries\/ducard-vineyards","address":"40 Gibson Hollow Lane, Etlan (Madison County), VA 22719","latitude":38.515306,"longitude":-78.303042},{"id":87,"name":"Eagletree Farm Vineyards","website":"\/wineries\/eagletree-farm-vineyards","address":"15100 Harrison Hill Lane, Leesburg, Virginia 20176","latitude":39.19871,"longitude":-77.493871},{"id":88,"name":"Early Mountain Vineyards","website":"\/wineries\/early-mountain-vineyards","address":"6109 Wolftown-Hood Road, Madison, Virginia 22727","latitude":38.35037,"longitude":-78.30801},{"id":89,"name":"Eastwood Farm and Winery","website":"\/wineries\/eastwood-farm-and-winery","address":"2531 Scottsville Road, Charlottesville, VA 22902","latitude":37.96616,"longitude":-78.516503},{"id":90,"name":"Ecco Adesso Vineyards","website":"\/wineries\/ecco-adesso-vineyards","address":"340 Ecco Adesso Lane, Fairfield, VA 24435","latitude":37.835936,"longitude":-79.307863},{"id":91,"name":"Eden Try Estate and Winery","website":"\/wineries\/eden-try-estate-and-winery","address":"6818 River Road, Fredericksburg, VA 22407","latitude":38.32908,"longitude":-77.572856},{"id":92,"name":"Effingham Manor & Winery","website":"\/wineries\/effingham-manor-winery","address":"14325 Trotters Ridge Place, Nokesville, VA 20181","latitude":38.638003,"longitude":-77.521652},{"id":93,"name":"Elk Island Winery","website":"\/wineries\/elk-island-winery","address":"5759 River Road West  (Winery Entrance Sign), Goochland, VA 23063","latitude":37.73009,"longitude":-78.09434},{"id":94,"name":"Endhardt Vineyards","website":"\/wineries\/endhardt-vineyards","address":"19600 Lincoln Rd., Purcellville, VA 20132","latitude":39.074209,"longitude":-77.694969},{"id":95,"name":"Fabbioli Cellars","website":"\/wineries\/fabbioli-cellars","address":"15669 Limestone School Road, Leesburg, Virginia 20176","latitude":39.183349,"longitude":-77.518471},{"id":96,"name":"Fables & Feathers Winery","website":"\/wineries\/fables-feathers-winery","address":"2117 Bruno Dr., Goodview, VA 24095","latitude":37.231721,"longitude":-79.708142},{"id":97,"name":"Fifty-Third Winery and Vineyard","website":"\/wineries\/fifty-third-winery-and-vineyard-0","address":"13372 Shannon Hill Rd, Louisa, Virginia 23093","latitude":37.9623,"longitude":-77.92421},{"id":98,"name":"Firefly Cellars","website":"\/wineries\/firefly-cellars","address":"40325 Charles Town Pike, Hamilton, VA 20158","latitude":39.150327,"longitude":-77.624978},{"id":99,"name":"Fleetwood Farm Winery","website":"\/wineries\/fleetwood-farm-winery","address":"23075 Evergreen Mills Rd, Leesburg, VA 20175","latitude":38.988606,"longitude":-77.562177},{"id":100,"name":"Flying Fox Vineyard","website":"\/wineries\/flying-fox-vineyard","address":"10368 Critzer Shop Road, Afton, Virginia 22920","latitude":38.003436,"longitude":-78.827802},{"id":101,"name":"Fox Meadow Vineyards & Winery","website":"\/wineries\/fox-meadow-vineyards-winery","address":"3310 Freezeland Road, Linden, Virginia 22642","latitude":38.935479,"longitude":-78.046896},{"id":102,"name":"Gabriele Rausse Winery","website":"\/wineries\/gabriele-rausse-winery","address":"3247 Carters Mountain Road, Charlottesville, VA 22902","latitude":37.940968,"longitude":-78.477278},{"id":103,"name":"Gadino Cellars","website":"\/wineries\/gadino-cellars","address":"92 Schoolhouse Road, Washington, Virginia 22747","latitude":38.682316,"longitude":-78.170989},{"id":104,"name":"Garden Grove Brewing & Urban Winery","website":"\/wineries\/garden-grove-brewing-urban-winery","address":"3445 West Cary Street, Richmond, VA 23221","latitude":37.554832,"longitude":-77.485919},{"id":105,"name":"Gauthier Vineyard","website":"\/wineries\/gauthier-vineyard","address":"5000 Farmer's Drive, Barhamsville, VA 23011","latitude":37.473437,"longitude":-76.832134},{"id":106,"name":"General's Ridge Vineyard","website":"\/wineries\/general-s-ridge-vineyard","address":"1618 Weldons Drive, Hague, Virginia 22469","latitude":38.029978,"longitude":-76.663473},{"id":107,"name":"Glass House Winery","website":"\/wineries\/glass-house-winery","address":"5898 Free Union Rd, Free Union, Virginia 22940","latitude":38.19916,"longitude":-78.579643},{"id":108,"name":"Glen Manor Vineyards","website":"\/wineries\/glen-manor-vineyards","address":"2244 Browntown Road, Front Royal, Virginia 22630","latitude":38.840059,"longitude":-78.22909},{"id":109,"name":"Good Luck Cellars","website":"\/wineries\/good-luck-cellars","address":"1025 Good Luck Road, Kilmarnock, VA 22482","latitude":37.735977,"longitude":-76.381445},{"id":110,"name":"Good Spirit Farm","website":"\/wineries\/good-spirit-farm","address":"35113 Snickersville Turnpike, Round Hill, VA 20141","latitude":39.08789,"longitude":-77.795094},{"id":111,"name":"Grace Estate Winery","website":"\/wineries\/grace-estate-winery","address":"5273 Mount Juliet Farm, Crozet, Virginia 22932","latitude":38.117793,"longitude":-78.684255},{"id":112,"name":"Graham Ordinary Lodge and Meadery","website":"\/wineries\/graham-ordinary-lodge-and-meadery","address":"8578 PEAKS RD, Bedford, VA 24523","latitude":37.433701,"longitude":-79.579905},{"id":113,"name":"Granite Heights Winery","website":"\/wineries\/granite-heights-winery-0","address":"8141 Opal Rd. , Warrenton, VA 20186","latitude":38.637908,"longitude":-77.843669},{"id":114,"name":"Gray Ghost Vineyards","website":"\/wineries\/gray-ghost-vineyards","address":"14706 Lee Highway, Amissville, Virginia 20106","latitude":38.677702,"longitude":-78.004565},{"id":115,"name":"Grayhaven Winery","website":"\/wineries\/grayhaven-winery","address":"4675 East Grey Fox Circle, Gum Spring, VA 23065","latitude":37.806031,"longitude":-77.90729},{"id":116,"name":"Great Valley Farm Winery","website":"\/wineries\/great-valley-farm-winery","address":"60 Great Valley Lane, Natural Bridge, Virginia 24578","latitude":37.680191,"longitude":-79.513087},{"id":117,"name":"Greenhill Vineyards","website":"\/wineries\/greenhill-vineyards","address":"23595 Winery Lane, Middleburg, VA 20117","latitude":38.966004,"longitude":-77.705197},{"id":118,"name":"Haley's Honey Meadery","website":"\/wineries\/haley-s-honey-meadery","address":"235 E Broadway, Hopewell, VA 23860","latitude":37.304769,"longitude":-77.285578},{"id":119,"name":"Hamlet Vineyards","website":"\/wineries\/hamlet-vineyards","address":"405 Riverside Drive, Bassett, VA 24055","latitude":36.73553,"longitude":-79.964899},{"id":120,"name":"Hampton Roads Winery","website":"\/wineries\/hampton-roads-winery","address":"6074 New Design Road, Elberon, VA 23846","latitude":37.07159,"longitude":-76.875171},{"id":121,"name":"Hardware Hills Vineyard","website":"\/wineries\/hardware-hills-vineyard","address":"5199 W River Rd., Scottsville, VA 24590","latitude":37.78923,"longitude":-78.40558},{"id":122,"name":"Hark Vineyards","website":"\/wineries\/hark-vineyards","address":"1465 Davis Shop Rd, Earlysville, VA 22936","latitude":38.213296,"longitude":-78.549183},{"id":123,"name":"Haunted Vineyards Winery","website":"\/wineries\/haunted-vineyards-winery","address":"25231 Selma Rd, Jetersville, Virginia 23083","latitude":37.29803,"longitude":-78.16507},{"id":124,"name":"Hazy Mountain Vineyards","website":"\/wineries\/hazy-mountain-vineyards","address":"8736 Dick Woods Rd, Afton, VA 22920","latitude":38.020124,"longitude":-78.806513},{"id":125,"name":"Henway Hard Cider","website":"\/wineries\/henway-hard-cider","address":"18780 Foggy Bottom Road, Bluemont, VA 20135","latitude":39.095155,"longitude":-77.825105},{"id":126,"name":"Hickory Hill Vineyards","website":"\/wineries\/hickory-hill-vineyards","address":"1722 Hickory Cove Lane, Moneta, VA 24121","latitude":37.130437,"longitude":-79.630419},{"id":127,"name":"Hidden Brook Winery","website":"\/wineries\/hidden-brook-winery","address":"43301 Sprinks Ferry Rd., Leesburg, VA 20176","latitude":39.207638,"longitude":-77.499804},{"id":128,"name":"Hiddencroft Vineyards","website":"\/wineries\/hiddencroft-vineyards","address":"12202 Axline Road, Lovettsville, Virginia 20180","latitude":39.273623,"longitude":-77.674401},{"id":129,"name":"Hillsborough Winery, Brewery & Vineyard","website":"\/wineries\/hillsborough-winery-brewery-vineyard","address":"36716 Charles Town Pike, Hillsboro, VA 20132","latitude":39.206164,"longitude":-77.733771},{"id":130,"name":"Hill Top Berry Farm and Winery","website":"\/wineries\/hill-top-berry-farm-and-winery","address":"2800 Berry Hill Road, Nellysford, Virginia 22958","latitude":37.900618,"longitude":-78.846052},{"id":131,"name":"Honah Lee Vineyard","website":"\/wineries\/honah-lee-vineyard","address":"13443 Honah Lee Farm Drive,  at intersection of Rt 718 and Rt 15, Gordonsville, Virginia 22942","latitude":47.607798,"longitude":14.300144},{"id":132,"name":"Horton Vineyards","website":"\/wineries\/horton-vineyards","address":"6399 Spotswood Trail, Gordonsville, VA 22942","latitude":38.166799,"longitude":-78.260872},{"id":133,"name":"Hunting Creek Vineyards","website":"\/wineries\/hunting-creek-vineyards","address":"2000 Addie Williams Trail, Clover, Virginia 24534","latitude":36.93308,"longitude":-78.78347},{"id":134,"name":"Ingleside Vineyards","website":"\/wineries\/ingleside-vineyards","address":"5872 Leedstown Road, Oak Grove, Virginia 22443","latitude":38.1511,"longitude":-77.003092},{"id":135,"name":"Iron Heart Winery","website":"\/wineries\/iron-heart-winery","address":"3742 Boone Furnace Road, Allisonia, VA 24347","latitude":36.92073,"longitude":-80.76915},{"id":136,"name":"Jacey Vineyards","website":"\/wineries\/jacey-vineyards","address":"619 Train Lane, P.O Box 338, Wicomico Church, VA 22579","latitude":37.799948,"longitude":-76.336318},{"id":137,"name":"James Charles Winery & Vineyard","website":"\/wineries\/james-charles-winery-vineyard","address":"4063 Middle Rd, Winchester, VA 22602","latitude":39.125873,"longitude":-78.230598},{"id":138,"name":"James River Cellars","website":"\/wineries\/james-river-cellars","address":"11008 Washington Highway, Glen Allen, Virginia 23059","latitude":37.700754,"longitude":-77.462385},{"id":139,"name":"JBR Vineyards & Winery","website":"\/wineries\/jbr-vineyards-winery","address":"1360 Springdale Road, Pearisburg, VA 24134","latitude":37.225073,"longitude":-80.699124},{"id":140,"name":"Jefferson Vineyards","website":"\/wineries\/jefferson-vineyards","address":"1353 Thomas Jefferson Parkway, Charlottesville, VA 22902","latitude":37.990041,"longitude":-78.443641},{"id":141,"name":"Jolene Family Winery","website":"\/wineries\/jolene-family-winery","address":"2750 Pocahontas Trail, Quinton , VA 23141","latitude":37.504769,"longitude":-77.180983},{"id":142,"name":"Jump Mountain Vineyard","website":"\/wineries\/jump-mountain-vineyard","address":"1493 Walkers Creek Rd, Rockbridge Baths, VA 24473","latitude":37.93455,"longitude":-79.38511},{"id":143,"name":"Kalero Vineyard","website":"\/wineries\/kalero-vineyard","address":"36140 Charles Town Pike, Purcellville, VA 20132","latitude":39.215708,"longitude":-77.742741},{"id":144,"name":"Keswick Vineyards","website":"\/wineries\/keswick-vineyards","address":"1575 Keswick Winery Drive, Keswick, VA 22947","latitude":38.0702,"longitude":-78.286718},{"id":145,"name":"Kilaurwen Winery, LLC","website":"\/wineries\/kilaurwen-winery-llc","address":"1543 Evergreen Church Road , Stanardsville, VA 22973","latitude":38.271292,"longitude":-78.528259},{"id":146,"name":"King Family Vineyards","website":"\/wineries\/king-family-vineyards","address":"6550 Roseland Farm, Crozet, Virginia 22932","latitude":38.062852,"longitude":-78.729881},{"id":147,"name":"Knight's Gambit Vineyard","website":"\/wineries\/knight-s-gambit-vineyard","address":"2218 Lake Albemarle Rd, Charlottesville, VA 22901","latitude":38.09333,"longitude":-78.62134},{"id":148,"name":"Lake Anna Winery","website":"\/wineries\/lake-anna-winery","address":"5621 Courthouse Rd, Spotsylvania, VA 22551","latitude":38.114017,"longitude":-77.76988},{"id":149,"name":"Lazy Days Winery","website":"\/wineries\/lazy-days-winery","address":"1351 N Amherst Hwy, Amherst, VA 24521","latitude":37.61884,"longitude":-79.02033},{"id":150,"name":"Leo Grande Vineyards & Winery","website":"\/wineries\/leo-grande-vineyards-winery","address":"1343 Wingfield Drive, Goode, Virginia 24556","latitude":37.344171,"longitude":-79.411141},{"id":151,"name":"Lexington Valley Vineyard","website":"\/wineries\/lexington-valley-vineyard","address":"80 Norton Way, Rockbridge Baths, Virginia 24473","latitude":37.865475,"longitude":-79.417431},{"id":152,"name":"Lightwell Survey","website":"\/wineries\/lightwell-survey","address":"200 W. 12TH ST, UNIT# D53 , Waynesboro, VA 22908","latitude":38.062471,"longitude":-78.887272},{"id":153,"name":"Linden Vineyards","website":"\/wineries\/linden-vineyards","address":"3708 Harrels Corner Road, Linden, VA 22642","latitude":38.880747,"longitude":-78.071606},{"id":154,"name":"Little Washington Winery and Skyline Brewing","website":"\/wineries\/little-washington-winery-and-skyline-brewing","address":"65 Clark Lane, Washington, VA 22747","latitude":38.695254,"longitude":-78.184436},{"id":155,"name":"Lost Boy Cider","website":"\/wineries\/lost-boy-cider","address":"317 Hooffs Run Drive, ALEXANDRIA, VA 22314","latitude":38.798752,"longitude":-77.063369},{"id":156,"name":"Loving Cup Vineyard & Winery","website":"\/wineries\/loving-cup-vineyard-winery","address":"3340 Sutherland Road , North Garden, VA 22959","latitude":37.951583,"longitude":-78.686389},{"id":157,"name":"Lovingston Winery","website":"\/wineries\/lovingston-winery","address":"885 Freshwater Cove Lane, Lovingston, VA 22949","latitude":37.727264,"longitude":-78.913507},{"id":158,"name":"Magnolia Vineyards & Winery","website":"\/wineries\/magnolia-vineyards-winery","address":"200 Viewtown Rd, Amissville, VA 20106","latitude":38.645137,"longitude":-78.032039},{"id":159,"name":"Marceline Vineyards","website":"\/wineries\/marceline-vineyards","address":"5887 Cross Keys Rd., Mt. Crawford, VA 22841","latitude":38.323391,"longitude":-78.868731},{"id":160,"name":"Mattaponi Winery","website":"\/wineries\/mattaponi-winery","address":"7530 Morris Road, Spotsylvania, Virginia 22551","latitude":38.144069,"longitude":-77.593562},{"id":161,"name":"Mediterranean Cellars","website":"\/wineries\/mediterranean-cellars","address":"8295 Falcon Glen Road, Warrenton, VA 20186","latitude":38.7573,"longitude":-77.85318},{"id":162,"name":"Mermaid Winery","website":"\/wineries\/mermaid-winery","address":"101 Granby Street, Norfolk, Virginia 23510","latitude":36.846547,"longitude":-76.292514},{"id":163,"name":"Merrie Mill Farm & Vineyard","website":"\/wineries\/merrie-mill-farm-vineyard","address":"594 Merrie Mill Farm, Keswick, VA 22947","latitude":38.050982,"longitude":-78.292579},{"id":164,"name":"Michael Shaps Wineworks","website":"\/wineries\/michael-shaps-wineworks","address":"1781 Harris Creek Way, Charlottesville, VA 22902","latitude":37.897995,"longitude":-78.557253},{"id":165,"name":"Misty Mountain Meadworks","website":"\/wineries\/misty-mountain-meadworks","address":"661 Warm Springs Rd., Winchester, VA 22603","latitude":39.290002,"longitude":-78.162851},{"id":166,"name":"Molon Lave Vineyards","website":"\/wineries\/molon-lave-vineyards","address":"10075 Lees Mill Road, Warrenton, Virginia 20186","latitude":38.61924,"longitude":-77.82302},{"id":167,"name":"Monroe Bay Vineyard","website":"\/wineries\/monroe-bay-vineyard","address":"4786 James Monroe Highway, Colonial Beach , VA 22443","latitude":38.245367,"longitude":-76.983032},{"id":168,"name":"Montifalco Vineyard","website":"\/wineries\/montifalco-vineyard","address":"1800 Fray Road, Ruckersville, VA 22968","latitude":38.194658,"longitude":-78.436797},{"id":169,"name":"Morais Vineyards & Winery","website":"\/wineries\/morais-vineyards-winery","address":"11409 Marsh Road, Bealeton, VA 22712","latitude":38.567062,"longitude":-77.751246},{"id":170,"name":"Moss Vineyards","website":"\/wineries\/moss-vineyards","address":"1849 Simmons Gap Road, Dyke, Virginia 22935","latitude":38.237535,"longitude":-78.554387},{"id":171,"name":"Mountain Cove Vineyards","website":"\/wineries\/mountain-cove-vineyards","address":"1362 Fortunes Cove Lane, Lovingston, VA 22949","latitude":37.777262,"longitude":-78.890418},{"id":172,"name":"MountainRose Vineyards","website":"\/wineries\/mountainrose-vineyards","address":"10439 N. Reservoir Rd., Wise, VA 24293","latitude":36.97085,"longitude":-82.52407},{"id":173,"name":"Mountain Run Winery","website":"\/wineries\/mountain-run-winery","address":"10753 Mountain Run Lake Road, Culpeper, Virginia 22701","latitude":38.46633,"longitude":-78.051538},{"id":174,"name":"Mountain & Vine Vineyards and Winery","website":"\/wineries\/mountain-vine-vineyards-and-winery","address":"500 Del Fosse Winery Lane, Faber, VA 22938","latitude":37.891809,"longitude":-78.763215},{"id":175,"name":"Mount Alto Vineyards","website":"\/wineries\/mount-alto-vineyards","address":"10436 Howardsville Tpke, Esmont, VA 22937","latitude":37.750682,"longitude":-78.656027},{"id":176,"name":"Mount Fair Vineyard","website":"\/wineries\/mount-fair-vineyard","address":"4626 Slam Gate Road, Crozet, Virginia 22932","latitude":38.16445,"longitude":-78.67774},{"id":177,"name":"Mt. Defiance Cider Barn","website":"\/wineries\/mt-defiance-cider-barn","address":"495 E. Washington St., Middleburg, VA 20117","latitude":38.970779,"longitude":-77.728358},{"id":178,"name":"Muddy Paws Winery","website":"\/wineries\/muddy-paws-winery","address":"2640 Rock Island Rd, Scottsville, VA 24590","latitude":37.739782,"longitude":-78.54008},{"id":179,"name":"Muse Orchard","website":"\/wineries\/muse-orchard","address":"533 Lantz Rd, Edinburg, VA 22824","latitude":38.820345,"longitude":-78.60114},{"id":180,"name":"Muse Vineyards","website":"\/wineries\/muse-vineyards","address":"16 Serendipity Lane, Woodstock, VA 22664","latitude":38.85688,"longitude":-78.501743},{"id":181,"name":"Naked Mountain Winery and Vineyards","website":"\/wineries\/naked-mountain-winery-and-vineyards","address":"2747 Leeds Manor Road, PO Box 115, Markham, Virginia 22643","latitude":38.926876,"longitude":-77.997419},{"id":182,"name":"Narmada Winery","website":"\/wineries\/narmada-winery","address":"43 Narmada Lane, Amissville, Virginia 20106","latitude":38.691709,"longitude":-78.025621},{"id":183,"name":"New Kent Winery","website":"\/wineries\/new-kent-winery","address":"8400 Old Church Road, New Kent, VA 23124","latitude":37.528844,"longitude":-77.075663},{"id":184,"name":"Nicewonder Vineyards","website":"\/wineries\/nicewonder-vineyards","address":"22091 Nicewonder Drive, Bristol, VA 24202","latitude":36.628847,"longitude":-82.092378},{"id":185,"name":"Nokesville Winery","website":"\/wineries\/nokesville-winery","address":"12593 Foremost Court, Nokesville, VA 20181","latitude":38.684058,"longitude":-77.570744},{"id":186,"name":"North Mountain Vineyard & Winery","website":"\/wineries\/north-mountain-vineyard-winery","address":"4374 Swartz Road, Maurertown, Virginia 22644","latitude":38.949273,"longitude":-78.478329},{"id":187,"name":"Notaviva Craft Fermentations","website":"\/wineries\/notaviva-craft-fermentations","address":"13274 Sagle Road, Hillsboro, VA 20132","latitude":39.252883,"longitude":-77.747823},{"id":188,"name":"October One Vineyard","website":"\/wineries\/october-one-vineyard","address":"7 Loudoun St SW, Leesburg, VA 20175","latitude":39.114321,"longitude":-77.565935},{"id":189,"name":"Old Farm Winery at Hartland","website":"\/wineries\/old-farm-winery-at-hartland","address":"23583 Fleetwood Road, Aldie, VA 20105","latitude":38.96695,"longitude":-77.568194},{"id":190,"name":"Old Hill Cider","website":"\/wineries\/old-hill-cider","address":"17768 Honeyville Road, Timberville, VA 22853","latitude":38.66771,"longitude":-78.79657},{"id":191,"name":"Old House Vineyards","website":"\/wineries\/old-house-vineyards","address":"18351 Corkys Lane, Culpeper, VA 22701","latitude":38.454809,"longitude":-77.912848},{"id":192,"name":"Otium Cellars","website":"\/wineries\/otium-cellars","address":"18050 Tranquility Rd., Purcellville, VA 20132","latitude":39.115226,"longitude":-77.746727},{"id":193,"name":"Ox Eye Vineyards","website":"\/wineries\/ox-eye-vineyards","address":"44 Middlebrook Avenue, Staunton, VA 24401","latitude":38.146975,"longitude":-79.073941},{"id":194,"name":"Paradise Springs Winery","website":"\/wineries\/paradise-springs-winery","address":"13219 Yates Ford Road, Clifton, Virginia 20124","latitude":38.765678,"longitude":-77.405048},{"id":195,"name":"Peaks of Otter Winery","website":"\/wineries\/peaks-of-otter-winery","address":"2122 Sheep Creek Rd, Bedford, Virginia 24523","latitude":37.400067,"longitude":-79.624412},{"id":196,"name":"Pearmund Cellars","website":"\/wineries\/pearmund-cellars","address":"6190 Georgetown Road, Broad Run, VA 20137","latitude":38.78455,"longitude":-77.738865},{"id":197,"name":"Philip Carter Winery","website":"\/wineries\/philip-carter-winery","address":"4366 Stillhouse Road, Hume, VA 22639","latitude":38.856093,"longitude":-77.990813},{"id":198,"name":"Pippin Hill Farm & Vineyards","website":"\/wineries\/pippin-hill-farm-vineyards","address":"5022 Plank Road, North Garden, VA 22959","latitude":37.961924,"longitude":-78.658242},{"id":199,"name":"Plum Creek Winery","website":"\/wineries\/plum-creek-winery","address":"5418 Thompson Valley Road, Tazwell, VA 24651","latitude":37.047448,"longitude":-81.586463},{"id":200,"name":"Pollak Vineyards","website":"\/wineries\/pollak-vineyards","address":"330 Newtown Road, Greenwood, VA 22943","latitude":38.03455,"longitude":-78.794362},{"id":201,"name":"Potomac Point Winery & Vineyard","website":"\/wineries\/potomac-point-winery-vineyard","address":"275 Decatur Road, Stafford, Virginia 22554","latitude":38.457871,"longitude":-77.344286},{"id":202,"name":"Potter's Craft Cider","website":"\/wineries\/potter-s-craft-cider","address":"1350 Arrowhead Valley Rd. , Charlottesville, VA 22903","latitude":37.998634,"longitude":-78.579809},{"id":203,"name":"Potter's Craft Cider- Cider Garden","website":"\/wineries\/potter-s-craft-cider-cider-garden","address":"209 Monticello Rd, Charlottesville, VA 22902","latitude":38.027245,"longitude":-78.47681},{"id":204,"name":"Preston Ridge Winery","website":"\/wineries\/preston-ridge-winery","address":"4105 Preston Rd, Martinsville, VA 24112","latitude":36.671704,"longitude":-79.994372},{"id":205,"name":"Prince Michel Vineyard & Winery","website":"\/wineries\/prince-michel-vineyard-winery","address":"154 Winery Lane, Leon, Virginia 22725","latitude":38.436349,"longitude":-78.154191},{"id":206,"name":"Quattro Goombas Winery","website":"\/wineries\/quattro-goombas-winery","address":"22860 James Monroe Hwy., Aldie, Virginia 20105","latitude":38.985434,"longitude":-77.616799},{"id":207,"name":"Qui\u00e8vremont Vineyard & Winery","website":"\/wineries\/quievremont-vineyard-winery-0","address":"162 Gid Brown Hollow Road, Washington, VA 22747","latitude":38.689886,"longitude":-78.211262},{"id":208,"name":"Ramulose Ridge Vineyards","website":"\/wineries\/ramulose-ridge-vineyards","address":"3061 Hendricks Store Rd, Moneta, VA 24121","latitude":37.13608,"longitude":-79.62929},{"id":209,"name":"Rappahannock Cellars","website":"\/wineries\/rappahannock-cellars","address":"14437 Hume Road, Huntly, VA 22640","latitude":38.834681,"longitude":-78.114022},{"id":210,"name":"Rassawek Vineyard","website":"\/wineries\/rassawek-vineyard","address":"6276 River Road West, Columbia, VA 23038","latitude":37.751846,"longitude":-78.131612},{"id":211,"name":"RdV Vineyards","website":"\/wineries\/rdv-vineyards","address":"2550 Delaplane Grade Rd, Delaplane, VA 20144","latitude":38.934952,"longitude":-77.917967},{"id":212,"name":"Rebec Vineyards Inc","website":"\/wineries\/rebec-vineyards-inc","address":"2229 North Amherst Hwy, Amherst, VA 24521","latitude":37.641276,"longitude":-78.985628},{"id":213,"name":"Reitano Vineyards","website":"\/wineries\/reitano-vineyards","address":"137 Lee Burke Rd, Front Royal, VA 22630","latitude":38.903711,"longitude":-78.260196},{"id":214,"name":"Reserve: Winery & Lounge","website":"\/wineries\/reserve-winery-lounge","address":"1101 Jefferson St, Suite 100, Lynchburg, VA 24504","latitude":37.414007,"longitude":-79.139112},{"id":215,"name":"Revalation Vineyards","website":"\/wineries\/revalation-vineyards","address":"2710 Hebron Valley Road, Madison, VA 22727","latitude":38.438497,"longitude":-78.23345},{"id":216,"name":"Reynard Florence Vineyard","website":"\/wineries\/reynard-florence-vineyard","address":"16109 Burnley Road, Barboursville, VA 22923","latitude":38.185428,"longitude":-78.337219},{"id":217,"name":"Rivah Vineyards at the Grove","website":"\/wineries\/rivah-vineyards-at-the-grove","address":"671 Kinsale Bridge Road  , Kinsale, VA 22488","latitude":38.03831,"longitude":-76.57727},{"id":218,"name":"River Dog Winery","website":"\/wineries\/river-dog-winery","address":"7959 Bradbury Rd, Henrico, Virginia 23231","latitude":37.445909,"longitude":-77.275254},{"id":219,"name":"Rockbridge Vineyard & Brewery","website":"\/wineries\/rockbridge-vineyard-brewery","address":"35 Hill View Lane, Raphine, VA 24472","latitude":37.937543,"longitude":-79.232796},{"id":220,"name":"Rogers Ford Farm Winery","website":"\/wineries\/rogers-ford-farm-winery","address":"14674 Rogers Ford Road, Sumerduck, VA 22742","latitude":38.425003,"longitude":-77.732164},{"id":221,"name":"Rosemond Vineyards","website":"\/wineries\/rosemond-vineyards","address":"Rosemond Vineyards, 10691 SPOTSYLVANIA AVE, Fredericksburg, VA 22408","latitude":38.247207,"longitude":-77.494762},{"id":222,"name":"Rosemont Vineyards","website":"\/wineries\/rosemont-vineyards","address":"1050 Blackridge Road, LaCrosse, Virginia 23950","latitude":36.58668,"longitude":-78.05738},{"id":223,"name":"Saga Meadery & Winery","website":"\/wineries\/saga-meadery-winery","address":"7 South Street, Front Royal, VA 22630","latitude":38.911792,"longitude":-78.194013},{"id":224,"name":"Sage Bird Ciderworks","website":"\/wineries\/sage-bird-ciderworks","address":"325 North Liberty Street, Harrisonburg, VA 22802","latitude":38.453112,"longitude":-78.86998},{"id":225,"name":"Saud\u00e9 Creek Vineyards","website":"\/wineries\/saude-creek-vineyards","address":"16230 Cooks Mill Rd, Lanexa, VA 23089","latitude":37.517472,"longitude":-76.885806},{"id":226,"name":"Septenary Winery","website":"\/wineries\/septenary-winery","address":"200 Seven Oaks Farm, Greenwood, VA 22943","latitude":38.04155,"longitude":-78.747357},{"id":227,"name":"Seven Doors Winery","website":"\/wineries\/seven-doors-winery","address":"5800 Johnson Mountain Rd, Huddleston , VA 24104","latitude":37.185169,"longitude":-79.387214},{"id":228,"name":"Sharp Rock Vineyards","website":"\/wineries\/sharp-rock-vineyards","address":"5 Sharp Rock Rd, Sperryville, Virginia 22740","latitude":38.555387,"longitude":-78.255006},{"id":229,"name":"Shenandoah Vineyards","website":"\/wineries\/shenandoah-vineyards","address":"3659 S. Ox Rd., Edinburg, VA 22824","latitude":38.84896,"longitude":-78.559},{"id":230,"name":"Skippers Creek Vineyard","website":"\/wineries\/skippers-creek-vineyard","address":"965 Rocky Ford Rd, Powhatan, VA 23139","latitude":37.470652,"longitude":-77.883681},{"id":231,"name":"Slater Run Vineyards","website":"\/wineries\/slater-run-vineyards","address":"1500 Crenshaw Road, Upperville, VA 20184","latitude":38.972906,"longitude":-77.832322},{"id":232,"name":"Sly Clyde Ciderworks","website":"\/wineries\/sly-clyde-ciderworks","address":"207 East Mellen Street, Hampton, VA 23663","latitude":37.016486,"longitude":-76.319472},{"id":233,"name":"Southern Revere Cellars","website":"\/wineries\/southern-revere-cellars","address":"1100 E. Jack Jouett Road, Louisa, VA 23093","latitude":37.969381,"longitude":-78.098142},{"id":234,"name":"Southwest Mountains Vineyards","website":"\/wineries\/southwest-mountains-vineyards","address":"2300 Whipper In Lane, Keswick, VA 22947","latitude":38.06444,"longitude":-78.33112},{"id":235,"name":"Spinning Jenny Vineyard","website":"\/wineries\/spinning-jenny-vineyard","address":"2664 Old Route 100 Road, Draper, Draper, VA 24324","latitude":37.0049,"longitude":-80.74228},{"id":236,"name":"Spring Run Vineyards","website":"\/wineries\/spring-run-vineyards","address":"10700 Spring Run Road, Chesterfield, VA 23832","latitude":37.363484,"longitude":-77.595046},{"id":237,"name":"Stanburn Winery","website":"\/wineries\/stanburn-winery","address":"158 Conner Dr., Stuart, VA 24171","latitude":36.587953,"longitude":-80.196126},{"id":238,"name":"Star in the Valley Estate Winery","website":"\/wineries\/star-in-the-valley-estate-winery","address":"33 Amos Lane, Strasburg, VA 22657","latitude":39.029074,"longitude":-78.41},{"id":239,"name":"Star Party Winery","website":"\/wineries\/star-party-winery","address":"23 E Beverley St, Staunton, VA 24401","latitude":38.149727,"longitude":-79.071787},{"id":240,"name":"Stinson Vineyards","website":"\/wineries\/stinson-vineyards","address":"4744 Sugar Hollow Road , Crozet, VA 22932","latitude":38.119587,"longitude":-78.664578},{"id":241,"name":"Stone House Meadery","website":"\/wineries\/stone-house-meadery","address":"36580 Shoemaker School Road, PURCELLVILLE, VA 20132","latitude":39.087577,"longitude":-77.740639},{"id":242,"name":"Stone Mountain Vineyards","website":"\/wineries\/stone-mountain-vineyards","address":"1376 Wyatt Mountain Road, Dyke, VA 22935","latitude":38.279764,"longitude":-78.587327},{"id":243,"name":"Stone Tower Winery","website":"\/wineries\/stone-tower-winery","address":"19925 Hogback Mountain Rd, Leesburg, VA 20175","latitude":39.063941,"longitude":-77.634825},{"id":244,"name":"Stoney Brook Vineyards & Winery","website":"\/wineries\/stoney-brook-vineyards-winery","address":"516 Stoney Battery Rd, Troutville, VA 24175","latitude":37.413515,"longitude":-79.867938},{"id":245,"name":"SummerWind Vineyard","website":"\/wineries\/summerwind-vineyard","address":"71 Eagle Nest Ln, Smithfield, VA 23430","latitude":37.012623,"longitude":-76.609426},{"id":246,"name":"Sunset Hills Vineyard","website":"\/wineries\/sunset-hills-vineyard","address":"38295 Fremont Overlook Lane, Purcellville, Virginia 20132","latitude":39.179787,"longitude":-77.67792},{"id":247,"name":"Tarara Winery","website":"\/wineries\/tarara-winery","address":"13648 Tarara Lane, Leesburg, Virginia 20176","latitude":39.237099,"longitude":-77.479699},{"id":248,"name":"Tasting Room & Taphouse at Mount Ida Reserve","website":"\/wineries\/tasting-room-taphouse-at-mount-ida-reserve","address":"5931 Blenheim Road, Charlottesville, VA 22902","latitude":37.865375,"longitude":-78.480244},{"id":249,"name":"Terra Nebulo Vineyards","website":"\/wineries\/terra-nebulo-vineyards","address":"39892 Old Wheatland Rd , Waterford, VA 20197","latitude":39.191422,"longitude":-77.620373},{"id":250,"name":"The Barns at Hamilton Station Vineyards","website":"\/wineries\/the-barns-at-hamilton-station-vineyards","address":"16804 Hamilton Station Road, Hamilton, VA, VA 20158","latitude":39.15176,"longitude":-77.644414},{"id":251,"name":"The Briede Family Vineyards","website":"\/wineries\/the-briede-family-vineyards-0","address":"450 Green Spring Road, Winchester, VA 22603","latitude":39.298377,"longitude":-78.154987},{"id":252,"name":"The Dog and Oyster Vineyard","website":"\/wineries\/the-dog-and-oyster-vineyard","address":"170 White Fences Drive (Vineyard), 65 Tavern Road (IHotel), Irvington, VA 22480","latitude":37.66397,"longitude":-76.41344},{"id":253,"name":"The Estate at White Hall Vineyard","website":"\/wineries\/the-estate-at-white-hall-vineyard","address":"3668 White Hall Road, King George, VA 22485","latitude":38.2789,"longitude":-77.28517},{"id":254,"name":"The Hague Winery","website":"\/wineries\/the-hague-winery","address":"8268 Cople Highway, PO Box 141, Hague, Virginia 22469","latitude":38.07169,"longitude":-76.656057},{"id":255,"name":"The Homeplace Vineyard","website":"\/wineries\/the-homeplace-vineyard","address":"568 Rigney Circle, Chatham, VA 24531","latitude":36.867789,"longitude":-79.473607},{"id":256,"name":"The New River Vineyard & Winery LLC","website":"\/wineries\/the-new-river-vineyard-winery-llc","address":"6750 Falling Branch Road, Fairlawn, VA 24141","latitude":37.120546,"longitude":-80.606307},{"id":257,"name":"The Vineyards & Winery at Lost Creek","website":"\/wineries\/the-vineyards-winery-at-lost-creek","address":"43285 Spinks Ferry Rd, Leesburg, Virginia 20176","latitude":39.200273,"longitude":-77.495823},{"id":258,"name":"The Wine Reserve at Waterford","website":"\/wineries\/the-wine-reserve-at-waterford","address":"38516 Charles Town Pike, Waterford, VA 20197","latitude":39.190551,"longitude":-77.669838},{"id":259,"name":"The Winery at Bull Run","website":"\/wineries\/the-winery-at-bull-run","address":"15950 Lee Highway, Centreville, VA 20120","latitude":38.82875,"longitude":-77.498412},{"id":260,"name":"The Winery at La Grange","website":"\/wineries\/the-winery-at-la-grange","address":"4970 Antioch Road, Haymarket, Virginia 20169","latitude":38.85113,"longitude":-77.686562},{"id":261,"name":"The Winery at Sunshine Ridge Farm","website":"\/wineries\/the-winery-at-sunshine-ridge-farm","address":"15850 Sunshine Ridge Lane, Gainesville, VA 20155","latitude":38.76334,"longitude":-77.656688},{"id":262,"name":"Thibaut-Janisson Winery","website":"\/wineries\/thibaut-janisson-winery","address":"1413 Dairy Rd, Charlottesville, Virginia 22903","latitude":38.051918,"longitude":-78.488755},{"id":263,"name":"Three Creeks Winery","website":"\/wineries\/three-creeks-winery","address":"18548 Harmony Church Rd, Hamilton, VA 20158","latitude":39.109668,"longitude":-77.651788},{"id":264,"name":"Three Fox Vineyards & Farm Brewery","website":"\/wineries\/three-fox-vineyards-farm-brewery","address":"10100 Three Fox Lane, Delaplane, Virginia 20144","latitude":38.916224,"longitude":-77.925925},{"id":265,"name":"Three Sisters of Shiney Rock","website":"\/wineries\/three-sisters-of-shiney-rock","address":"5484 Shiney Rock Rd, Clarksville, VA 23927","latitude":36.551862,"longitude":-78.59956},{"id":266,"name":"Triple V Farms","website":"\/wineries\/triple-v-farms","address":"3138 Jessie Dupont Memorial Hwy, Heathsville, VA 22473","latitude":37.843957,"longitude":-76.370178},{"id":267,"name":"Troddenvale at Oakley Farm","website":"\/wineries\/troddenvale-at-oakley-farm","address":"170 Oakley Farm Lane, Warm Springs, VA 24484","latitude":38.04316,"longitude":-79.78983},{"id":268,"name":"Trump Winery","website":"\/wineries\/trump-winery","address":"385 Albemarle House Drive, Charlottesville, VA 22902","latitude":37.9511,"longitude":-78.50811},{"id":269,"name":"Tumbling Creek Cider Company","website":"\/wineries\/tumbling-creek-cider-company","address":"112 Court Street NE, Abingdon, VA 24210","latitude":36.71282,"longitude":-81.969703},{"id":270,"name":"Turk Mountain Vineyards","website":"\/wineries\/turk-mountain-vineyards","address":"8982 Dick Woods Rd, Afton, VA 22920","latitude":38.018354,"longitude":-78.812451},{"id":271,"name":"Twin Oaks Tavern Winery","website":"\/wineries\/twin-oaks-tavern-winery","address":"18035 Raven Rocks Rd, Bluemont, Virginia 20135","latitude":39.120995,"longitude":-77.844952},{"id":272,"name":"Two Twisted Posts Winery","website":"\/wineries\/two-twisted-posts-winery","address":"12944 Harpers Ferry Rd, Purcellville, VA 20132","latitude":39.25944,"longitude":-77.72192},{"id":273,"name":"Upper Shirley Vineyards","website":"\/wineries\/upper-shirley-vineyards","address":"600 Shirley Plantation Road, Charles City, VA 23030","latitude":37.345907,"longitude":-77.256536},{"id":274,"name":"Valerie Hill Vineyard & Winery","website":"\/wineries\/valerie-hill-vineyard-winery","address":"1687 Marlboro Road , Stephens City, VA 22655","latitude":39.089876,"longitude":-78.274009},{"id":275,"name":"Valhalla Vineyards","website":"\/wineries\/valhalla-vineyards","address":"6500 Mt. Chestnut Rd., Roanoke, VA 24018","latitude":37.224232,"longitude":-80.055472},{"id":276,"name":"Valley Road Vineyards","website":"\/wineries\/valley-road-vineyards","address":"9264 Critzers Shop Road, Afton, VA 22920","latitude":38.021208,"longitude":-78.821911},{"id":277,"name":"Veramar Vineyard","website":"\/wineries\/veramar-vineyard-0","address":"905 Quarry Road, Berryville, VA 22611","latitude":39.117999,"longitude":-77.914622},{"id":278,"name":"Veritas Vineyards and Winery","website":"\/wineries\/veritas-vineyards-and-winery","address":"151 Veritas Lane, Afton, Virginia 22920","latitude":38.015429,"longitude":-78.836395},{"id":279,"name":"Villa Appalaccia Winery","website":"\/wineries\/villa-appalaccia-winery","address":"We are located right off the beautiful Blue Ridge Parkway between milepost #170 & #171 (adjacent to the Floyd Fest grounds).  Turn onto gravel road Route 720 (Rock Castle Gorge Rd) and continue until you see our sign! 752 Rock Castle Gorge Rd, Floyd VA.  24091  , Floyd, Virginia 24091","latitude":36.7985107543,"longitude":-80.3738865612},{"id":280,"name":"Village Winery","website":"\/wineries\/village-winery","address":"40405 Browns Lane, Waterford, Virginia 20197","latitude":39.18685,"longitude":-77.60289},{"id":281,"name":"Vincent's Vineyard","website":"\/wineries\/vincent-s-vineyard","address":"2313 East Main St, Lebanon, Virginia 24266","latitude":36.91077,"longitude":-82.04194},{"id":282,"name":"Vint Hill Craft Winery","website":"\/wineries\/vint-hill-craft-winery","address":"7150 Lineweaver Road, Warrenton, VA 20187","latitude":38.742471,"longitude":-77.676059},{"id":283,"name":"Virginia Mountain Vineyards","website":"\/wineries\/virginia-mountain-vineyards","address":"4204 Old Fincastle Rd, Fincastle, Virginia 24090-3559","latitude":37.569284,"longitude":-79.878157},{"id":284,"name":"Walsh Family Wine","website":"\/wineries\/walsh-family-wine","address":"16031 Hillsboro Rd, Purcellville, VA 20132","latitude":39.175133,"longitude":-77.725856},{"id":285,"name":"Webster C Hall Vineyards","website":"\/wineries\/webster-c-hall-vineyards","address":"2120 Webster Corner Road, Callaway , VA 24067","latitude":37.11251,"longitude":-80.04328},{"id":286,"name":"Weston Farm Vineyard and Winery","website":"\/wineries\/weston-farm-vineyard-and-winery","address":"206 Harris Creek Rd, Louisa, VA 23093","latitude":38.021428,"longitude":-78.013778},{"id":287,"name":"West Wind Farm Vineyard and Winery","website":"\/wineries\/west-wind-farm-vineyard-and-winery","address":"180 West Wind Dr., Max Meadows, Wythe County, Virginia 24360","latitude":36.902254,"longitude":-80.909617},{"id":288,"name":"White Hall Vineyards","website":"\/wineries\/white-hall-vineyards","address":"5282 Sugar Ridge Rd., Crozet, Virginia 22932","latitude":38.134904,"longitude":-78.684057},{"id":289,"name":"White Oak Lavender & The Purple Wolf Vineyard","website":"\/wineries\/white-oak-lavender-the-purple-wolf-vineyard","address":"2644 Cross Keys Road, Rockingham, VA 22801","latitude":38.364226,"longitude":-78.838825},{"id":290,"name":"Wilderness Run Vineyards","website":"\/wineries\/wilderness-run-vineyards","address":"11109 Plank Road, Spotsylvania, VA 22553","latitude":38.32721,"longitude":-77.71902},{"id":291,"name":"Wild Hare Cider Barn","website":"\/wineries\/wild-hare-cider-barn","address":"106 A South Street SE, Leesburg, VA 20175","latitude":39.114255,"longitude":-77.565097},{"id":292,"name":"Williamsburg Winery","website":"\/wineries\/williamsburg-winery","address":"5800 Wessex Hundred, Williamsburg, Virginia 23185","latitude":37.232071,"longitude":-76.718452},{"id":293,"name":"Williams Gap Vineyard","website":"\/wineries\/williams-gap-vineyard","address":"35785 Sexton Farm Lane, Round Hill, VA 20141","latitude":39.147045,"longitude":-77.778622},{"id":294,"name":"Willowcroft Farm Vineyards","website":"\/wineries\/willowcroft-farm-vineyards","address":"38906 Mt. Gilead Road, Leesburg, Virginia 20175","latitude":39.071964,"longitude":-77.659511},{"id":295,"name":"Winchester Ciderworks","website":"\/wineries\/winchester-ciderworks","address":"30 E Piccadilly Street, Winchester, Virginia 22601","latitude":39.186328,"longitude":-78.163777},{"id":296,"name":"Wind Vineyards at Laurel Grove","website":"\/wineries\/wind-vineyards-at-laurel-grove","address":"5178 Richmond Hwy, Tappahannock, VA 22560","latitude":37.844312,"longitude":-76.927572},{"id":297,"name":"Winery at Kindred Pointe","website":"\/wineries\/winery-at-kindred-pointe","address":"3575 Conicville Road, Mount Jackson, VA 22842","latitude":38.796444,"longitude":-78.651782},{"id":298,"name":"Wineworks Extended","website":"\/wineries\/wineworks-extended","address":"1585 Avon Street Extended, Charlottesville, Virginia 22902","latitude":38.008203,"longitude":-78.490938},{"id":299,"name":"Wisdom Oak Winery","website":"\/wineries\/wisdom-oak-winery-0","address":"3613 Walnut Branch Lane, North Garden, VA 22959","latitude":37.938734,"longitude":-78.613359},{"id":300,"name":"Wisteria Farm & Vineyard","website":"\/wineries\/wisteria-farm-vineyard","address":"1126 Marksville Rd., Stanley, Virginia 22851","latitude":38.572561,"longitude":-78.474871},{"id":301,"name":"Wolf Gap Vineyard & Winery","website":"\/wineries\/wolf-gap-vineyard-winery","address":"123 Stout Road, Edinburg, Virginia 22824","latitude":38.827292,"longitude":-78.632336},{"id":302,"name":"Woodbine Vineyards","website":"\/wineries\/woodbine-vineyards","address":"1142 Hite Dr, Buffalo Junction, Virginia 24529","latitude":36.634839,"longitude":-78.659418},{"id":303,"name":"Woodbrook Farm Vineyard","website":"\/wineries\/woodbrook-farm-vineyard","address":"11461 Spicers Mill Road, Orange, VA 22960","latitude":38.24553,"longitude":-78.17248},{"id":304,"name":"Zephaniah Farm Vineyard","website":"\/wineries\/zephaniah-farm-vineyard","address":"19381 Dunlop Mill Road, Leesburg, VA 20175","latitude":39.081099,"longitude":-77.624612},{"id":305,"name":"Zoll Vineyards","website":"\/wineries\/zoll-vineyards","address":"10309 Vineyard Road, Dutton , VA 23050","latitude":37.494486,"longitude":-76.444382}]
